City_ID,City,Country,Lat,Lng,Max Temp,Humidity,Cloudiness,Wind Speed,Current Description
0,Ushuaia,AR,-54.8,-68.3,35.26,93,100,32.21,sleet
1,Honiara,SB,-9.4333,159.95,76.14,85,39,3.02,scattered clouds
2,Rikitea,PF,-23.1203,-134.9692,72.61,75,99,7.7,overcast clouds
3,Aykhal,RU,66.0,111.5,53.19,84,64,2.39,broken clouds
4,Busselton,AU,-33.65,115.3333,58.93,81,29,17.07,scattered clouds
5,Bukachacha,RU,52.9833,116.9167,68.95,72,82,6.76,broken clouds
6,Mataura,NZ,-46.1927,168.8643,34.48,98,16,2.95,few clouds
7,Barrow,US,71.2906,-156.7887,37.42,93,100,12.66,mist
8,Tasiilaq,GL,65.6145,-37.6368,40.98,75,67,4.56,broken clouds
9,Mar Del Plata,AR,-38.0023,-57.5575,53.62,68,0,6.91,moderate rain
10,Qaanaaq,GL,77.484,-69.3632,42.19,84,100,11.54,overcast clouds
11,Genhe,CN,50.7833,121.5167,59.5,95,15,3.69,few clouds
12,Bluff,NZ,-46.6,168.3333,34.81,84,83,7.25,broken clouds
13,Grindavik,IS,63.8424,-22.4338,55.87,82,75,8.05,broken clouds
14,Faanui,PF,-16.4833,-151.75,77.65,74,13,10.29,few clouds
15,Mount Isa,AU,-20.7333,139.5,47.97,46,0,5.75,clear sky
16,Puerto Ayora,EC,-0.7393,-90.3518,72.55,84,48,5.99,scattered clouds
17,Machinga,MW,-15.1685,35.3,69.1,41,36,4.29,scattered clouds
18,Zhigansk,RU,66.7697,123.3711,51.93,94,97,7.78,overcast clouds
19,Lazaro Cardenas,MX,17.9583,-102.2,85.1,69,99,5.61,overcast clouds
20,Chuy,UY,-33.6971,-53.4616,60.01,83,100,3.15,overcast clouds
21,Mogadishu,SO,2.0371,45.3438,75.97,81,47,17.96,scattered clouds
22,Tokur,RU,53.1333,132.9,50.34,96,93,3.24,overcast clouds
23,Kapaa,US,22.0752,-159.319,75.18,92,12,9.89,moderate rain
24,Lebu,CL,-37.6167,-73.65,54.34,96,100,11.07,overcast clouds
25,Jamestown,US,42.097,-79.2353,83.01,67,4,4.0,clear sky
26,Poum,NC,-20.2333,164.0167,77.25,90,41,19.39,scattered clouds
27,Haines Junction,CA,60.7522,-137.5108,49.73,78,100,6.4,overcast clouds
28,Mandalgovi,MN,45.7625,106.2708,58.59,56,54,5.26,broken clouds
29,Broken Hill,AU,-31.95,141.4333,55.08,71,100,12.28,overcast clouds
30,Cherskiy,RU,68.75,161.3,33.94,87,24,5.48,few clouds
31,Punta Arenas,CL,-53.15,-70.9167,41.02,75,0,21.85,clear sky
32,Kavieng,PG,-2.5744,150.7967,81.7,78,39,10.31,light rain
33,Barstow,US,34.8986,-117.0228,95.99,10,29,9.1,scattered clouds
34,Masterton,NZ,-40.9597,175.6575,37.89,84,95,1.45,overcast clouds
35,Vaini,TO,-21.2,-175.2,71.76,88,40,5.75,scattered clouds
36,Zarya,RU,55.7553,38.0958,77.38,65,99,5.44,overcast clouds
37,Sitka,US,57.0531,-135.33,55.29,82,100,4.61,overcast clouds
38,Hermanus,ZA,-34.4187,19.2345,57.79,68,92,11.77,overcast clouds
39,Albany,US,42.6001,-73.9662,92.79,41,7,1.01,clear sky
40,Bredasdorp,ZA,-34.5322,20.0403,54.36,64,100,7.85,overcast clouds
41,Victoria,HK,22.2855,114.1577,89.19,82,3,8.99,clear sky
42,Vakhtan,RU,57.9659,46.6889,66.6,76,84,4.7,broken clouds
43,Beringovskiy,RU,63.05,179.3167,49.69,68,100,8.57,overcast clouds
44,Kruisfontein,ZA,-34.0033,24.7314,57.88,73,100,4.79,overcast clouds
45,Tazmalt,DZ,36.3868,4.3989,99.28,19,19,8.03,few clouds
46,Majene,ID,-3.5403,118.9707,78.01,87,33,10.25,scattered clouds
47,Mitsamiouli,KM,-11.3847,43.2844,77.29,69,20,13.8,light rain
48,Cape Town,ZA,-33.9258,18.4232,59.41,80,40,8.05,scattered clouds
49,Umm Lajj,SA,25.0213,37.2685,88.32,57,6,9.37,clear sky
50,Tuktoyaktuk,CA,69.4541,-133.0374,56.37,71,86,6.8,overcast clouds
51,Cootamundra,AU,-34.65,148.0333,44.69,94,91,7.81,overcast clouds
52,Port Alfred,ZA,-33.5906,26.891,65.5,67,49,3.33,scattered clouds
53,Strezhevoy,RU,60.7333,77.5889,52.14,68,93,7.61,overcast clouds
54,Clyde River,CA,70.4692,-68.5914,53.73,54,75,3.8,broken clouds
55,Jagupit,PH,9.2422,125.5581,75.7,92,85,4.03,light rain
56,Nanortalik,GL,60.1432,-45.2371,48.06,81,38,5.44,scattered clouds
57,Avarua,CK,-21.2078,-159.775,75.25,83,75,11.5,broken clouds
58,Georgetown,MY,5.4112,100.3354,78.73,95,40,0.0,scattered clouds
59,Luderitz,NA,-26.6481,15.1594,61.07,68,13,14.36,few clouds
60,Gatesville,US,31.4352,-97.7439,95.36,45,0,11.81,clear sky
61,Kondinskoye,RU,59.6481,67.41,56.93,67,66,7.92,broken clouds
62,Vorozhba,UA,51.1733,34.2192,63.28,85,45,9.86,light rain
63,Sidrolandia,BR,-20.9319,-54.9614,89.46,22,83,9.17,broken clouds
64,Pinsk,BY,52.1229,26.0951,75.92,64,0,6.51,clear sky
65,Castro,BR,-24.7911,-50.0119,74.86,39,33,6.58,scattered clouds
66,Guerrero Negro,MX,27.9769,-114.0611,73.89,64,6,19.28,clear sky
67,Chokurdakh,RU,70.6333,147.9167,38.66,78,77,12.55,broken clouds
68,Pangkalanbuun,ID,-2.6833,111.6167,74.71,98,95,2.28,overcast clouds
69,Vila,PT,42.0304,-8.1588,77.7,41,31,8.75,scattered clouds
70,Rabo De Peixe,PT,37.8,-25.5833,71.11,78,40,6.91,scattered clouds
71,Nelson Bay,AU,-32.7167,152.15,61.0,76,80,8.99,broken clouds
72,Itacurubi Del Rosario,PY,-24.5,-56.6833,91.54,26,59,8.32,broken clouds
73,Areosa,PT,41.7178,-8.8571,75.18,56,38,21.34,scattered clouds
74,Raglan,NZ,-37.8,174.8833,42.1,82,85,7.94,overcast clouds
75,Altoona,US,40.5187,-78.3947,87.33,54,0,1.99,clear sky
76,Ondjiva,AO,-17.0667,15.7333,68.45,22,0,8.03,clear sky
77,Odweyne,SO,9.4092,45.064,75.52,49,73,20.4,broken clouds
78,Vestmannaeyjar,IS,63.4427,-20.2734,51.44,94,100,9.04,overcast clouds
79,Walvis Bay,NA,-22.9575,14.5053,77.95,31,0,6.91,clear sky
80,Nome,US,64.5011,-165.4064,45.16,98,100,11.99,light rain
81,Kyenjojo,UG,0.6328,30.6214,71.06,48,69,4.68,broken clouds
82,Tsabong,BW,-26.0217,22.401,66.24,34,9,6.71,clear sky
83,Nizhniy Ingash,RU,56.2,96.53,56.89,96,79,4.32,broken clouds
84,Kieta,PG,-6.2167,155.6333,76.96,75,9,2.73,clear sky
85,Saldanha,ZA,-33.0117,17.9442,57.25,85,100,3.74,overcast clouds
86,Bethel,US,41.3712,-73.414,93.34,47,0,1.01,clear sky
87,Curuguaty,PY,-24.4694,-55.6945,87.84,26,50,7.61,scattered clouds
88,Upernavik,GL,72.7868,-56.1549,42.06,95,100,24.96,light rain
89,Saint-Philippe,RE,-21.3585,55.7679,69.39,81,35,14.23,light rain
90,Jalu,LY,29.0331,21.5482,92.61,16,0,9.17,clear sky
91,Zhangzhou,CN,24.5133,117.6556,80.35,92,1,1.3,clear sky
92,Santiago,CL,-33.4569,-70.6483,73.29,41,0,3.44,clear sky
93,Lorengau,PG,-2.0226,147.2712,81.64,80,88,7.29,overcast clouds
94,Manado,ID,1.487,124.8455,75.97,94,40,1.14,scattered clouds
95,Montbrison,FR,45.6667,4.0833,93.54,29,100,10.38,overcast clouds
96,Norman Wells,CA,65.282,-126.8329,71.46,47,33,4.88,scattered clouds
97,Dingle,PH,10.9995,122.6711,77.0,90,75,4.5,broken clouds
98,Berlevag,NO,70.8578,29.0864,57.0,87,100,13.8,overcast clouds
99,Ancud,CL,-41.8697,-73.8203,40.23,96,100,11.5,moderate rain
100,Hilo,US,19.7297,-155.09,77.29,97,100,6.91,mist
101,Butaritari,KI,3.0707,172.7902,80.96,76,30,9.19,scattered clouds
102,Puerto Escondido,MX,15.85,-97.0667,84.85,70,98,6.06,overcast clouds
103,Novyy Urengoy,RU,66.0833,76.6333,49.59,71,100,6.31,overcast clouds
104,Keuruu,FI,62.2667,24.7,77.18,77,96,7.18,overcast clouds
105,Pisco,PE,-13.7,-76.2167,65.57,67,1,7.0,clear sky
106,Vanavara,RU,60.34,102.2797,60.78,71,85,5.93,overcast clouds
107,Prince Rupert,CA,54.3161,-130.3201,58.8,75,98,4.16,overcast clouds
108,Narsaq,GL,60.9167,-46.05,62.82,59,59,6.51,broken clouds
109,Arraial Do Cabo,BR,-22.9661,-42.0278,78.76,73,0,13.8,clear sky
110,Lavumisa,SZ,-27.31,31.892,65.16,82,29,3.6,scattered clouds
111,Makakilo City,US,21.3469,-158.0858,76.19,80,6,13.94,clear sky
112,Jilib,SO,0.4883,42.7854,73.62,79,53,9.13,broken clouds
113,Ribeira Grande,PT,38.5167,-28.7,77.4,83,40,12.66,scattered clouds
114,Pingliang,CN,35.5392,106.6861,62.83,85,0,3.09,clear sky
115,Yellowknife,CA,62.456,-114.3525,62.56,59,96,4.0,overcast clouds
116,Kodiak,US,57.79,-152.4072,50.0,78,63,1.16,broken clouds
117,Fortuna,US,40.5982,-124.1573,59.94,86,69,1.99,broken clouds
118,Alice Springs,AU,-23.7,133.8833,44.15,53,0,0.0,clear sky
119,Klaksvik,FO,62.2266,-6.589,52.72,85,99,9.78,overcast clouds
120,Yeppoon,AU,-23.1333,150.7333,58.78,84,68,8.77,broken clouds
121,Constantine,DZ,36.365,6.6147,96.21,24,20,16.11,few clouds
122,Kahului,US,20.8947,-156.47,76.84,85,2,7.0,clear sky
123,Aksay,RU,47.26,39.87,75.25,47,48,11.01,scattered clouds
124,Kuala Terengganu,MY,5.3302,103.1408,79.65,82,70,0.58,broken clouds
125,Uglekamensk,RU,43.2172,133.2303,64.04,99,100,2.33,overcast clouds
126,Suarez,CO,2.954,-76.6964,80.56,61,98,2.24,overcast clouds
127,Ola,RU,59.5833,151.2833,54.19,83,17,1.36,few clouds
128,Casper,US,42.8666,-106.3131,89.73,17,0,8.01,clear sky
129,San Jeronimo,PE,-11.9472,-75.2829,61.65,25,35,3.02,scattered clouds
130,Airai,TL,-8.9266,125.4092,52.25,77,78,2.28,broken clouds
131,Tanout,NE,14.9709,8.8879,95.74,29,87,5.37,overcast clouds
132,Atuona,PF,-9.8,-139.0333,76.96,76,2,15.28,clear sky
133,Souillac,MU,-20.5167,57.5167,70.11,79,28,15.75,scattered clouds
134,Bull Savanna,JM,17.8868,-77.5902,88.18,57,3,16.58,clear sky
135,Champerico,GT,14.3,-91.9167,82.81,75,86,6.64,overcast clouds
136,La Ronge,CA,55.1001,-105.2842,53.55,73,100,2.44,overcast clouds
137,Broome,US,42.2506,-75.833,87.19,54,3,5.99,clear sky
138,Cognac,FR,45.5,-0.25,75.97,64,100,17.27,overcast clouds
139,Shingu,JP,33.7333,135.9833,73.58,85,0,5.5,clear sky
140,Puri,IN,19.8,85.85,82.92,83,100,8.19,overcast clouds
141,Dikson,RU,73.5069,80.5464,53.29,73,100,10.83,overcast clouds
142,Santa Rosa,PH,14.3122,121.1114,83.01,78,51,5.35,broken clouds
143,Zalantun,CN,48.0,122.7167,64.83,97,71,4.94,broken clouds
144,Igarka,RU,67.4667,86.5833,59.2,75,99,8.61,overcast clouds
145,Grand-Lahou,CI,5.1367,-5.0242,78.71,66,96,7.0,overcast clouds
146,Nishihara,JP,26.1842,127.7558,83.86,89,20,11.5,few clouds
147,Laguna,US,38.421,-121.4238,90.95,46,0,8.05,clear sky
148,Hasaki,JP,35.7333,140.8333,77.29,90,31,18.41,scattered clouds
149,Fort Nelson,CA,58.8053,-122.7002,67.28,43,12,2.73,few clouds
150,Togur,RU,58.3631,82.8265,55.24,97,100,14.18,light rain
151,Hambantota,LK,6.1241,81.1185,79.57,81,98,19.95,overcast clouds
152,Korla,CN,41.7597,86.1469,85.53,19,0,4.18,clear sky
153,Manadhoo,MV,5.7667,73.3833,80.73,80,100,14.32,overcast clouds
154,Moyale,KE,3.5167,39.0584,73.44,43,99,14.09,overcast clouds
155,Nyuksenitsa,RU,60.4128,44.2397,68.43,80,80,3.87,broken clouds
156,New Norfolk,AU,-42.7826,147.0587,49.5,82,99,2.37,overcast clouds
157,Murfreesboro,US,35.8456,-86.3903,95.65,60,0,3.44,clear sky
158,Romny,UA,50.751,33.4747,63.86,84,55,9.15,light rain
159,Northam,GB,51.0333,-4.2167,66.38,65,12,14.38,few clouds
160,Cap Malheureux,MU,-19.9842,57.6142,71.47,70,45,7.0,scattered clouds
161,Serebryanyy Bor,RU,56.8,124.8,60.46,87,43,3.87,scattered clouds
162,Khatanga,RU,71.9667,102.5,45.77,83,100,14.14,overcast clouds
163,Ukiah,US,39.1502,-123.2078,88.43,36,0,1.01,clear sky
164,Port Elizabeth,ZA,-33.918,25.5701,62.31,60,0,5.75,clear sky
165,Williams Lake,CA,52.1415,-122.1445,73.45,39,8,2.71,clear sky
166,East London,ZA,-33.0153,27.9116,65.34,68,0,5.75,clear sky
167,Carnarvon,AU,-24.8667,113.6333,64.13,65,0,15.48,clear sky
168,Magole,TZ,-6.3667,37.3667,72.19,56,97,1.7,overcast clouds
169,Bjornevatn,NO,69.6672,29.9847,60.42,63,40,8.05,scattered clouds
170,Nemuro,JP,43.3236,145.575,59.68,92,100,6.98,overcast clouds
171,Olinda,BR,-8.0089,-34.8553,80.33,65,75,14.97,broken clouds
172,Uruacu,BR,-14.5247,-49.1408,90.79,19,0,4.34,clear sky
173,Bunda,TZ,-2.05,33.8667,77.54,41,87,1.32,overcast clouds
174,Khandagayty,RU,50.7333,92.05,57.36,69,73,0.4,broken clouds
175,Tuatapere,NZ,-46.1333,167.6833,37.49,93,47,3.87,scattered clouds
176,Saurimo,AO,-9.6608,20.3916,77.09,25,79,4.45,broken clouds
177,Hobart,AU,-42.8794,147.3294,49.86,76,75,8.05,broken clouds
178,Jiwani,PK,25.05,61.7417,83.17,81,97,12.46,overcast clouds
179,Talnakh,RU,69.4865,88.3972,65.21,62,74,5.53,broken clouds
180,Lidkoping,SE,58.5052,13.1577,66.42,81,100,10.25,overcast clouds
181,Hamilton,US,39.1834,-84.5333,91.74,60,1,8.01,clear sky
182,Paita,PE,-5.0892,-81.1144,68.68,72,4,10.22,clear sky
183,Kapit,MY,2.0167,112.9333,73.4,99,96,1.59,overcast clouds
184,Qingdao,CN,36.0986,120.3719,78.39,80,99,4.34,moderate rain
185,Nikolskoye,RU,59.7035,30.7861,82.29,54,35,3.2,scattered clouds
186,Sault Sainte Marie,CA,46.5168,-84.3333,77.59,48,77,8.32,broken clouds
187,Valparaiso,CL,-33.0393,-71.6273,61.32,62,2,9.33,clear sky
188,Tiksi,RU,71.6872,128.8694,43.27,82,52,5.64,broken clouds
189,Grand Gaube,MU,-20.0064,57.6608,71.38,70,45,7.0,scattered clouds
190,Twin Falls,US,42.3505,-114.6445,90.93,8,0,12.01,clear sky
191,Goderich,CA,43.7501,-81.7165,75.9,75,0,6.71,clear sky
192,Eyl,SO,7.9803,49.8164,77.94,78,99,26.33,overcast clouds
193,Paamiut,GL,61.994,-49.6678,47.16,80,7,5.66,clear sky
194,La Palma,US,33.8464,-118.0467,81.52,74,39,3.0,scattered clouds
195,Sinnamary,GF,5.3833,-52.95,83.16,71,14,6.85,few clouds
196,Marawi,PH,7.9986,124.2928,69.48,94,95,2.46,overcast clouds
197,Mariel,CU,22.9875,-82.7536,86.25,64,40,8.25,light rain
198,Saskylakh,RU,71.9167,114.0833,47.5,73,100,6.64,overcast clouds
199,Salina,US,38.8403,-97.6114,96.93,42,0,13.8,clear sky
200,Zhengjiatun,CN,43.5064,123.5064,71.35,85,84,2.86,broken clouds
201,Liverpool,GB,53.4106,-2.9779,68.14,85,100,6.91,overcast clouds
202,Guane,CU,22.2025,-84.0875,91.11,51,25,8.05,scattered clouds
203,Komsomolskiy,UZ,40.4272,71.7189,88.52,35,0,6.91,clear sky
204,Neuquen,AR,-38.9516,-68.0591,49.87,63,100,8.46,moderate rain
205,Teguldet,RU,57.3064,88.1667,57.51,98,95,6.46,overcast clouds
206,Iqaluit,CA,63.7506,-68.5145,45.7,81,76,5.01,broken clouds
207,Benjamin Aceval,PY,-24.9667,-57.5667,86.14,27,98,11.43,overcast clouds
208,Maragogi,BR,-9.0122,-35.2225,78.26,78,79,11.27,broken clouds
209,North Bend,US,43.4065,-124.2243,65.25,95,97,8.88,overcast clouds
210,Camacha,PT,33.0833,-16.3333,71.02,64,75,17.27,broken clouds
211,Torbay,CA,47.6666,-52.7314,78.89,68,97,3.0,overcast clouds
212,Okakarara,NA,-20.5833,17.4333,63.03,35,0,6.17,clear sky
213,Luanda,AO,-8.8368,13.2343,68.59,85,96,13.62,overcast clouds
214,Quatre Cocos,MU,-20.2078,57.7625,71.1,76,46,17.31,light rain
215,Shimanovsk,RU,52.0,127.7,61.48,72,22,4.9,few clouds
216,Bandarbeyla,SO,9.4942,50.8122,77.74,80,97,33.11,overcast clouds
217,Bria,CF,6.5423,21.9863,68.18,99,100,3.74,overcast clouds
218,Angoche,MZ,-16.2325,39.9086,72.55,73,7,7.58,clear sky
219,Severo-Kurilsk,RU,50.6789,156.125,54.45,93,100,3.42,overcast clouds
220,Tremedal,BR,-14.9758,-41.4108,82.42,36,40,9.08,scattered clouds
221,Kijini,TZ,-5.85,39.3167,73.89,79,2,12.84,clear sky
222,Sao Filipe,CV,14.8961,-24.4956,75.83,80,72,6.73,broken clouds
223,Saint George,US,37.1041,-113.5841,98.8,19,40,1.99,scattered clouds
224,Hithadhoo,MV,-0.6,73.0833,81.09,74,100,7.18,overcast clouds
225,Tromso,NO,69.6496,18.957,51.39,86,99,1.99,overcast clouds
226,Hirara,JP,24.8,125.2833,84.72,78,54,12.68,broken clouds
227,Longyearbyen,SJ,78.2186,15.6401,47.34,92,100,2.39,overcast clouds
228,Marsa Matruh,EG,31.3525,27.2453,79.5,69,0,13.47,clear sky
229,Blagoyevo,RU,63.3667,47.9167,66.96,52,83,3.09,broken clouds
230,Waiouru,NZ,-39.4833,175.6667,29.62,92,81,3.49,broken clouds
231,San Miguel,SV,13.4833,-88.1833,82.89,72,97,1.61,overcast clouds
232,Englehart,CA,47.8169,-79.8664,80.53,38,12,10.89,few clouds
233,Kaitangata,NZ,-46.2817,169.8464,38.68,92,84,4.68,broken clouds
234,Artesia,US,33.8658,-118.0831,80.83,72,40,5.01,scattered clouds
235,Carupano,VE,10.6678,-63.2585,83.41,70,41,13.33,scattered clouds
236,Salalah,OM,17.0151,54.0924,77.88,88,100,6.69,overcast clouds
237,Fort Smith,US,35.3859,-94.3986,84.25,33,76,4.21,broken clouds
238,Denpasar,ID,-8.65,115.2167,80.26,83,40,11.5,scattered clouds
239,Port Hueneme,US,34.1478,-119.1951,80.33,78,20,3.87,few clouds
240,Henties Bay,NA,-22.116,14.2845,60.89,69,0,8.55,clear sky
241,Soe,ID,-9.8607,124.284,57.33,86,99,4.07,overcast clouds
242,Zaqatala,AZ,41.6336,46.6433,71.2,72,32,4.81,light rain
243,Kangaatsiaq,GL,68.3065,-53.4641,42.31,94,100,21.32,light rain
244,Cabo San Lucas,MX,22.8909,-109.9124,86.25,60,91,5.28,overcast clouds
245,Huarmey,PE,-10.0681,-78.1522,65.86,75,59,6.35,broken clouds
246,Kavaratti,IN,10.5669,72.642,81.1,79,100,19.13,overcast clouds
247,Fairbanks,US,64.8378,-147.7164,52.61,88,100,6.91,overcast clouds
248,Sanchor,IN,24.7553,71.7722,86.99,69,99,13.18,overcast clouds
249,Bathsheba,BB,13.2167,-59.5167,83.05,81,10,16.17,clear sky
250,Aklavik,CA,68.2191,-135.0107,68.02,49,56,3.98,broken clouds
251,Charyshskoye,RU,51.3978,83.5598,57.88,88,76,4.05,broken clouds
252,Juneau,US,58.3019,-134.4197,55.22,97,99,2.35,overcast clouds
253,Tadine,NC,-21.55,167.8833,75.29,88,100,16.08,overcast clouds
254,Urdoma,RU,61.7533,48.5442,65.7,63,77,4.5,broken clouds
255,Smithers,CA,54.7804,-127.1743,65.28,58,89,3.78,overcast clouds
256,San Ramon,US,37.7799,-121.978,80.82,60,0,8.99,clear sky
257,Saint Anthony,US,45.0205,-93.218,88.93,46,2,1.01,clear sky
258,Russell,US,32.3502,-85.1999,88.02,48,100,5.88,overcast clouds
259,Alyangula,AU,-13.8483,136.4192,63.18,68,88,7.67,overcast clouds
260,Nisia Floresta,BR,-6.0911,-35.2086,86.38,80,95,13.4,overcast clouds
261,Khabary,RU,53.6259,79.5345,58.84,86,32,6.87,scattered clouds
262,Okha,RU,53.5739,142.9478,52.18,90,94,9.66,overcast clouds
263,Inhambane,MZ,-23.865,35.3833,67.12,82,1,5.88,clear sky
264,Pokhara,NP,28.2333,83.9833,73.72,86,100,2.89,overcast clouds
265,Sumbawanga,TZ,-7.9667,31.6167,62.01,51,65,2.55,broken clouds
266,Santa Isabel Do Rio Negro,BR,-0.4139,-65.0192,81.66,86,84,0.76,broken clouds
267,Lima,PE,-12.0432,-77.0282,63.43,74,47,6.13,scattered clouds
268,Bambous Virieux,MU,-20.3428,57.7575,71.22,76,36,17.58,light rain
269,Faya,SA,18.3851,42.4509,73.51,48,34,5.82,scattered clouds
270,Boa Vista,BR,2.8197,-60.6733,85.98,66,20,5.75,few clouds
271,Hammerfest,NO,70.6634,23.6821,52.25,100,75,11.5,broken clouds
272,Ciudad Bolivar,VE,8.1222,-63.5497,90.34,49,79,12.68,broken clouds
273,Porto Walter,BR,-8.2686,-72.7439,93.33,35,56,2.24,broken clouds
274,Provideniya,RU,64.3833,-173.3,42.57,80,63,9.28,broken clouds
275,Severnyy,RU,50.677,36.5532,60.84,88,40,8.95,scattered clouds
276,San Luis,AR,-33.295,-66.3356,69.51,28,6,2.95,clear sky
277,Margate,GB,51.3813,1.3862,65.1,75,100,4.0,overcast clouds
278,Chapais,CA,49.7834,-74.8492,71.11,58,49,12.57,scattered clouds
279,Ujszilvas,HU,47.2748,19.9248,98.8,26,3,1.01,clear sky
280,Urengoy,RU,65.9667,78.3667,51.04,69,100,7.38,overcast clouds
281,Lagoa,PT,39.05,-27.9833,72.73,86,100,8.84,overcast clouds
282,Antalaha,MG,-14.9003,50.2788,67.71,85,18,8.16,light rain
283,Egvekinot,RU,66.3167,-179.1667,38.3,80,97,9.6,overcast clouds
284,Caravelas,BR,-17.7125,-39.2481,76.84,69,40,5.88,scattered clouds
285,Miandrivazo,MG,-19.5167,45.4667,73.15,36,0,2.3,clear sky
286,Pasni,PK,25.2631,63.471,83.32,85,100,10.0,overcast clouds
287,Otjiwarongo,NA,-20.4637,16.6477,63.32,33,1,8.97,clear sky
288,Nadym,RU,65.5333,72.5167,46.45,93,100,8.81,overcast clouds
289,Malaryta,BY,51.7905,24.074,80.87,57,4,4.97,clear sky
290,Roebourne,AU,-20.7833,117.1333,70.86,72,4,9.31,clear sky
291,Sedro-Woolley,US,48.5039,-122.2361,66.61,78,100,5.75,overcast clouds
292,Cairns,AU,-16.9167,145.7667,67.95,87,75,6.91,broken clouds
293,Baie-Saint-Paul,CA,47.4411,-70.4986,82.06,47,0,10.69,clear sky
294,Gimli,CA,50.6336,-96.9907,68.85,63,2,16.69,clear sky
295,Leningradskiy,RU,69.3833,178.4167,32.27,94,97,8.57,overcast clouds
296,Tanta,EG,30.7885,31.0019,82.72,43,0,11.83,clear sky
297,Buraydah,SA,26.326,43.975,108.05,10,23,11.36,few clouds
298,San Cristobal,VE,7.7669,-72.225,83.88,43,100,8.23,overcast clouds
299,Novoseleznevo,RU,55.6821,69.2056,57.38,84,14,7.9,few clouds
300,Porto Novo,BJ,6.4965,2.6036,78.84,73,99,10.22,overcast clouds
301,Sharjah,AE,25.3573,55.4033,96.22,59,66,11.77,broken clouds
302,Touros,BR,-5.1989,-35.4608,82.2,68,92,15.03,overcast clouds
303,Comodoro Rivadavia,AR,-45.8667,-67.5,44.46,29,0,6.91,clear sky
304,Linxia,CN,35.6003,103.2064,58.69,58,0,4.59,clear sky
305,Wawa,NG,9.9022,4.4192,82.33,70,87,2.33,light rain
306,Alofi,NU,-19.0595,-169.9187,64.29,100,58,1.14,broken clouds
307,Arman,RU,59.7,150.1667,59.61,76,84,2.3,broken clouds
308,Kuytun,RU,54.3419,101.5036,55.65,94,100,1.92,overcast clouds
309,Dzaoudzi,YT,-12.7887,45.2699,75.09,78,40,4.61,scattered clouds
310,Muros,ES,42.7762,-9.0603,80.17,57,10,15.12,clear sky
311,Inuvik,CA,68.3499,-133.7218,68.67,51,54,7.61,broken clouds
312,Kloulklubed,PW,7.0419,134.2556,83.34,74,63,10.58,broken clouds
313,Liuzhou,CN,24.3126,109.3892,81.12,78,13,3.85,few clouds
314,Lompoc,US,34.6391,-120.4579,75.92,86,100,10.0,mist
315,Le Havre,FR,49.4938,0.1077,70.72,83,100,5.75,overcast clouds
316,Taihe,CN,30.8712,105.3845,66.61,90,88,4.54,overcast clouds
317,Kuminskiy,RU,58.6667,66.5667,55.4,88,29,2.95,scattered clouds
318,Praia Da Vitoria,PT,38.7333,-27.0667,75.76,89,100,3.49,overcast clouds
319,Marhaura,IN,25.9667,84.8667,84.13,72,92,12.21,overcast clouds
320,Port Blair,IN,11.6667,92.75,80.76,83,100,7.74,overcast clouds
321,Kuusamo,FI,65.9667,29.1833,69.84,49,0,12.66,clear sky
322,Pevek,RU,69.7008,170.3133,31.62,90,100,2.21,overcast clouds
323,Avera,US,33.194,-82.5271,83.71,56,100,7.31,overcast clouds
324,Porangatu,BR,-13.4408,-49.1486,94.77,19,0,3.15,clear sky
325,Esperance,AU,-33.8667,121.9,53.49,77,87,13.8,overcast clouds
326,Sao Joao Da Barra,BR,-21.6403,-41.0511,80.69,72,2,12.66,clear sky
327,Fukue,JP,32.6881,128.8419,77.65,78,18,7.56,few clouds
328,Zhangye,CN,38.9342,100.4517,73.27,29,3,6.93,clear sky
329,Turukhansk,RU,65.8167,87.9833,61.74,69,65,11.16,broken clouds
330,Nabire,ID,-3.3667,135.4833,74.88,92,71,3.76,broken clouds
331,Palencia,ES,42.4167,-4.5,77.74,42,73,20.56,broken clouds
332,Mnogovershinnyy,RU,53.9353,139.9242,48.88,77,85,4.34,overcast clouds
333,Buchanan,LR,5.8808,-10.0467,79.23,72,85,12.53,overcast clouds
334,Kulhudhuffushi,MV,6.6221,73.07,81.77,79,100,15.77,overcast clouds
335,Porto-Vecchio,FR,41.591,9.2795,98.26,23,0,11.5,clear sky
336,Naze,JP,28.3667,129.4833,77.92,85,68,7.43,broken clouds
337,Kutum,SD,14.2,24.6667,87.4,28,11,7.65,few clouds
338,Pittsburg,US,38.028,-121.8847,85.46,42,0,10.0,clear sky
339,Jacareacanga,BR,-6.2222,-57.7528,98.58,26,26,2.59,scattered clouds
340,Karratha,AU,-20.7377,116.8463,70.86,73,1,9.22,clear sky
341,Aransas Pass,US,27.9095,-97.15,93.22,71,40,12.66,scattered clouds
342,Plastun,RU,44.7561,136.2939,60.08,95,99,4.43,overcast clouds
343,Nhulunbuy,AU,-12.2333,136.7667,63.21,88,85,2.3,overcast clouds
344,Cajati,BR,-24.7361,-48.1228,86.02,41,22,2.1,few clouds
345,Murska Sobota,SI,46.6625,16.1664,94.68,30,4,7.2,clear sky
346,Jibuti,DJ,11.5,42.5,92.62,32,47,6.73,scattered clouds
347,Mahebourg,MU,-20.4081,57.7,71.26,76,28,17.65,light rain
348,Nea Pella,GR,40.7661,22.4856,91.29,46,0,11.54,clear sky
349,Constitucion,CL,-35.3333,-72.4167,59.63,74,99,8.99,overcast clouds
350,Portland,US,45.5234,-122.6762,65.84,77,100,3.44,overcast clouds
351,Sandnessjoen,NO,66.0217,12.6316,54.12,84,75,8.05,broken clouds
352,Dondo,MZ,-19.6094,34.7431,69.31,81,8,7.29,clear sky
353,Gaoual,GN,11.75,-13.2,80.8,85,100,4.5,moderate rain
354,Petropavlovsk-Kamchatskiy,RU,53.0452,158.6483,55.99,82,75,2.24,broken clouds
355,Panalingaan,PH,8.7842,117.4231,78.64,85,79,3.44,broken clouds
356,Esso,RU,55.9333,158.7,49.41,80,15,4.43,few clouds
357,Biak,ID,-0.9131,122.8766,75.58,88,59,6.71,broken clouds
358,Ponta Do Sol,PT,32.6667,-17.1,75.83,58,0,3.71,clear sky
359,Port Hardy,CA,50.6996,-127.4199,57.81,86,96,6.35,overcast clouds
360,Seredka,RU,58.1584,28.1858,80.35,64,97,4.54,overcast clouds
361,Cerkezkoy,TR,41.285,28.0003,82.58,42,0,8.05,clear sky
362,Thompson,CA,55.7435,-97.8558,54.36,80,100,6.35,overcast clouds
363,Dzhebariki-Khaya,RU,62.2167,135.8,65.41,92,95,2.86,light rain
364,Harper,LR,4.375,-7.7169,79.16,62,45,7.81,scattered clouds
365,Dali,CN,25.7,100.1833,65.01,87,100,2.82,overcast clouds
366,San Patricio,US,28.017,-97.5169,93.07,41,92,14.14,overcast clouds
367,Linjiang,CN,41.8069,126.9078,64.2,97,44,0.6,scattered clouds
368,Bambanglipuro,ID,-7.95,110.2833,74.62,84,81,5.19,broken clouds
369,Batemans Bay,AU,-35.7167,150.1833,52.11,93,56,4.68,broken clouds
370,Gwadar,PK,25.1216,62.3254,83.41,81,93,11.34,overcast clouds
371,Wanning,CN,18.8003,110.3967,80.04,86,25,5.1,scattered clouds
372,Deputatskiy,RU,69.3,139.9,45.19,71,71,3.36,broken clouds
373,Caluquembe,AO,-13.7833,14.6833,66.81,25,5,4.32,clear sky
374,Bowen,AU,-20.0167,148.2333,58.57,62,0,5.88,clear sky
375,Sinnar,SD,13.5691,33.5672,89.71,45,47,6.96,scattered clouds
376,Butterworth,MY,5.3991,100.3638,78.84,96,40,0.0,scattered clouds
377,Nikolsk,RU,53.7189,46.0712,60.31,92,26,7.14,light rain
378,Vao,NC,-22.6667,167.4833,74.5,87,91,22.57,overcast clouds
379,Petit-Bourg,GP,16.1914,-61.5916,87.84,55,20,14.97,few clouds
380,Inverell,AU,-29.7833,151.1167,48.16,88,73,4.0,broken clouds
381,Atbasar,KZ,51.8,68.3333,61.97,73,38,7.63,scattered clouds
382,Oranjemund,NA,-28.55,16.4333,55.9,85,41,9.51,scattered clouds
383,Mvuma,ZW,-19.2792,30.5283,57.36,66,93,6.89,overcast clouds
384,Belmonte,BR,-15.8631,-38.8828,78.06,63,46,8.37,scattered clouds
385,Sangmelima,CM,2.9333,11.9833,70.61,95,100,2.42,moderate rain
386,Shymkent,KZ,42.3,69.6,93.79,11,0,6.71,clear sky
387,Myitkyina,MM,25.3833,97.4,79.05,89,97,1.05,overcast clouds
388,Rudkobing,DK,54.9364,10.7102,64.29,69,50,19.73,scattered clouds
389,Shakawe,BW,-18.3667,21.85,66.0,40,83,3.4,broken clouds
390,Sorong,ID,-0.8833,131.25,77.72,88,97,12.1,overcast clouds
391,Amapa,BR,1.0,-52.0,88.79,50,45,3.69,scattered clouds
392,Sandwick,GB,60.0,-1.25,53.42,76,75,10.36,broken clouds
393,Codrington,AU,-38.2667,141.9667,51.15,91,100,7.27,light rain
394,Vidor,US,30.1316,-94.0155,87.82,54,97,7.58,light rain
395,Yar-Sale,RU,66.8333,70.8333,45.32,96,100,13.42,light rain
396,Verkhnevilyuysk,RU,63.4453,120.3167,58.69,94,69,3.49,broken clouds
397,Kroya,ID,-7.6331,109.2461,75.54,86,65,5.77,broken clouds
398,Jijiga,ET,9.35,42.8,63.81,72,59,14.29,broken clouds
399,Aleksandrov Gay,RU,50.147,48.5704,75.65,38,30,10.29,scattered clouds
400,Viedma,AR,-40.8135,-62.9967,50.63,49,97,4.5,overcast clouds
401,Polson,US,47.6936,-114.1632,78.22,49,94,1.99,overcast clouds
402,Draghiceni,RO,44.1333,24.25,93.85,16,1,5.03,clear sky
403,Kudahuvadhoo,MV,2.6708,72.8944,82.49,74,100,15.79,overcast clouds
404,Limoncito,BO,-18.0167,-63.4,84.81,41,0,12.84,clear sky
405,Tiznit,MA,29.5833,-9.5,96.96,18,57,11.39,broken clouds
406,Bengkulu,ID,-3.8004,102.2655,75.81,89,87,4.68,overcast clouds
407,Namibe,AO,-15.1961,12.1522,64.08,84,13,8.66,few clouds
408,Tukrah,LY,32.5341,20.5791,80.53,69,0,10.58,clear sky
409,Neyshabur,IR,36.2133,58.7958,89.02,16,0,6.64,clear sky
410,Joshimath,IN,30.5667,79.5667,71.98,97,98,1.43,overcast clouds
411,Maceio,BR,-9.6658,-35.7353,81.84,69,75,11.5,broken clouds
412,Tezu,IN,27.9167,96.1667,77.23,74,100,3.29,overcast clouds
413,Valdivia,CL,-39.8142,-73.2459,53.69,98,100,7.43,moderate rain
414,Pompeia,BR,-22.1086,-50.1717,84.24,23,53,7.83,broken clouds
415,Mount Gambier,AU,-37.8333,140.7667,50.85,97,100,8.9,light rain
416,Te Anau,NZ,-45.4167,167.7167,32.07,93,63,1.99,broken clouds
417,Kijang,KR,35.2442,129.2139,71.2,91,49,3.4,scattered clouds
418,Ramgarh,IN,23.6333,85.5167,80.22,86,100,5.14,moderate rain
419,Baruun-Urt,MN,46.6806,113.2792,61.48,60,100,5.14,overcast clouds
420,Lasa,IT,46.6166,10.7002,79.84,59,47,6.42,scattered clouds
421,Maningrida,AU,-12.0667,134.2667,56.77,71,63,7.87,broken clouds
422,Saint-Joseph,RE,-21.3667,55.6167,68.38,78,22,13.38,few clouds
423,Mancio Lima,BR,-7.6142,-72.8958,92.46,39,54,1.43,broken clouds
424,Omboue,GA,-1.5746,9.2618,73.47,78,48,12.15,scattered clouds
425,Wawina,HN,15.4167,-84.4333,81.28,88,100,5.21,overcast clouds
426,Kishi,NG,9.0833,3.85,78.12,74,95,4.81,overcast clouds
427,Acapulco,MX,16.8634,-99.8901,85.53,69,87,4.29,overcast clouds
428,Kholodnyy,RU,62.7167,147.95,50.22,81,97,1.05,overcast clouds
429,Pailitas,CO,8.9565,-73.6255,86.81,71,90,2.77,overcast clouds
430,Skjervoy,NO,70.0311,20.9714,53.6,88,100,11.48,light rain
431,Digha,IN,21.6833,87.55,82.78,83,100,9.91,overcast clouds
432,Pudozh,RU,61.8099,36.5345,71.85,61,60,5.7,broken clouds
433,Padang,ID,-0.9492,100.3543,78.3,88,100,5.12,overcast clouds
434,Morondava,MG,-20.2833,44.2833,72.59,69,0,10.65,clear sky
435,Raga,SS,8.4596,25.678,74.48,82,96,0.89,overcast clouds
436,Mahajanga,MG,-15.7167,46.3167,73.42,64,20,2.3,few clouds
437,Vardo,NO,70.3705,31.1107,53.58,87,75,14.97,broken clouds
438,Trairi,BR,-3.2778,-39.2689,85.57,57,95,13.22,overcast clouds
439,Merrill,US,45.1805,-89.6835,83.1,53,0,13.8,clear sky
440,Syasstroy,RU,60.1367,32.5691,72.37,60,28,5.19,scattered clouds
441,Zhanaozen,KZ,43.3,52.8,81.48,46,27,29.06,scattered clouds
442,Baykit,RU,61.67,96.37,58.64,96,47,3.31,scattered clouds
443,Naryan-Mar,RU,67.6713,53.087,53.1,60,63,8.93,broken clouds
444,Cidreira,BR,-30.1811,-50.2056,68.76,82,92,4.34,overcast clouds
445,Ntchisi,MW,-13.5278,33.9149,58.44,62,97,3.62,overcast clouds
446,Sladkovo,RU,55.5284,70.3385,56.88,82,6,6.26,clear sky
447,Menongue,AO,-14.6585,17.691,67.46,27,33,5.14,scattered clouds
448,Pangody,RU,65.85,74.4859,46.89,84,100,3.6,overcast clouds
449,Ahuimanu,US,21.4447,-157.8378,77.36,79,15,3.0,few clouds
450,Manuk Mangkaw,PH,4.8,119.85,83.08,70,21,2.55,few clouds
451,Port Augusta,AU,-32.5,137.7667,56.71,63,100,9.08,overcast clouds
452,Iturama,BR,-19.7281,-50.1956,87.37,22,22,5.95,few clouds
453,Salamanca,ES,40.8333,-6.0,93.99,9,29,12.06,scattered clouds
454,Uchiza,PE,-8.4592,-76.4633,86.9,50,55,3.18,broken clouds
455,Basco,PH,20.4487,121.9702,85.66,76,2,11.39,clear sky
456,Adrar,MR,20.5022,-10.0711,98.38,28,59,3.0,light rain
457,Gairo,IT,39.8497,9.5047,87.17,29,5,4.85,clear sky
458,Cubuk,TR,40.2386,33.0322,78.26,34,0,17.27,clear sky
459,Matara,LK,5.9485,80.5353,78.89,85,100,13.6,overcast clouds
460,Katsuura,JP,35.1333,140.3,78.98,85,34,18.48,scattered clouds
461,Sur,OM,22.5667,59.5289,89.04,64,83,8.43,broken clouds
462,Rio Cuarto,AR,-33.1307,-64.3499,73.67,38,0,8.12,clear sky
463,Saint-Leu,RE,-21.15,55.2833,68.86,70,7,1.83,clear sky
464,Kolo,PL,52.2002,18.6387,82.15,42,48,10.45,scattered clouds
465,Batagay-Alyta,RU,67.8006,130.4114,58.05,94,100,2.39,light rain
466,Janauba,BR,-15.8025,-43.3089,86.47,27,0,7.4,clear sky
467,Olafsvik,IS,64.8945,-23.7142,53.24,83,99,2.15,overcast clouds
468,Mayo,US,38.8876,-76.5119,95.0,48,71,3.0,broken clouds
469,Berger,NO,59.545,10.3714,64.11,92,100,9.31,overcast clouds
470,Kimbe,PG,-5.5502,150.1429,75.38,91,94,3.76,overcast clouds
471,Maniitsoq,GL,65.4167,-52.9,44.96,89,96,5.5,overcast clouds
472,Aripuana,BR,-9.1667,-60.6333,95.95,26,47,3.89,scattered clouds
473,Salinopolis,BR,-0.6136,-47.3561,85.71,62,84,10.07,broken clouds
474,Glens Falls,US,43.3095,-73.644,90.66,50,20,10.36,few clouds
475,Todos Santos,MX,23.45,-110.2167,99.3,75,75,7.43,broken clouds
476,Saint-Georges,GD,12.0564,-61.7485,83.62,66,31,15.3,scattered clouds
477,Preobrazheniye,RU,42.9019,133.9064,62.44,93,68,10.2,broken clouds
478,Pestretsy,RU,55.7531,49.6545,73.54,77,11,2.55,few clouds
479,Muslyumovo,RU,55.3033,53.1947,65.71,68,23,0.4,few clouds
480,Yibin,CN,28.7667,104.6238,69.53,92,100,0.72,overcast clouds
481,Alta Floresta,BR,-9.8756,-56.0861,96.26,19,0,4.09,clear sky
482,Yenagoa,NG,4.9247,6.2642,79.18,79,100,7.67,light rain
483,Podporozhye,RU,60.9112,34.1706,71.38,58,47,4.03,scattered clouds
484,Pafos,CY,34.7667,32.4167,83.98,74,0,11.5,clear sky
485,Aksarka,RU,66.5606,67.7975,47.01,95,100,3.76,light rain
486,Gujar Khan,PK,33.2558,73.3026,83.62,76,79,5.46,broken clouds
487,Ilulissat,GL,69.2167,-51.1,48.22,93,100,3.44,light rain
488,Hay River,CA,60.8156,-115.7999,60.67,70,42,7.74,scattered clouds
489,Coquimbo,CL,-29.9533,-71.3436,53.33,87,100,1.14,overcast clouds
490,Muroto,JP,33.2833,134.15,77.7,80,0,6.42,clear sky
491,Senno,RU,59.5336,33.9167,75.25,58,91,3.74,overcast clouds
492,Ashland,US,40.8167,-82.2665,86.88,60,0,10.27,clear sky
493,Geraldton,AU,-28.7667,114.6,50.41,93,76,13.8,broken clouds
494,Dalvik,IS,65.9702,-18.5286,53.51,81,93,5.21,overcast clouds
495,Dartford,GB,51.4435,0.2196,72.72,71,20,13.8,few clouds
496,Gravdal,NO,68.1214,13.5031,51.69,82,75,5.75,broken clouds
497,Sibolga,ID,1.7427,98.7792,76.69,90,86,4.18,overcast clouds
498,Hollola,FI,61.05,25.4333,81.95,48,30,6.96,scattered clouds
499,Belyy Yar,RU,53.6039,91.3903,64.29,77,0,8.95,clear sky
500,Road Town,VG,18.4167,-64.6167,81.66,72,10,20.6,clear sky
501,Abu Samrah,SY,35.3029,37.1841,87.66,28,0,12.86,clear sky
502,Sept-Iles,CA,50.2001,-66.3821,59.05,98,98,4.0,overcast clouds
503,San Policarpo,PH,12.1791,125.5072,80.55,82,89,0.54,light rain
504,Rio Gallegos,AR,-51.6226,-69.2181,37.45,52,0,29.93,clear sky
505,Tilichiki,RU,60.4667,166.1,50.97,81,100,2.24,overcast clouds
506,Arlit,NE,18.7369,7.3853,105.67,11,94,6.55,overcast clouds
507,Mao,ES,39.8885,4.2658,88.36,55,0,9.22,clear sky
508,Sardinata,CO,8.0829,-72.8007,93.34,39,77,4.25,broken clouds
509,Methoni,GR,36.8197,21.7049,89.22,68,0,9.55,clear sky
510,Podosinovets,RU,60.2776,47.0659,66.31,78,55,4.34,broken clouds
511,Itupiranga,BR,-5.1347,-49.3267,94.01,30,37,3.27,scattered clouds
512,San Andres,CO,12.5847,-81.7006,81.81,81,100,19.89,overcast clouds
513,Amalapuram,IN,16.5833,82.0167,78.85,86,100,6.71,overcast clouds
514,Rawson,AR,-43.3002,-65.1023,43.65,40,99,7.09,overcast clouds
515,Olavarria,AR,-36.8927,-60.3225,57.02,50,100,5.1,overcast clouds
516,Samarai,PG,-10.6167,150.6667,79.59,81,33,5.61,scattered clouds
517,Araouane,ML,18.9048,-3.5265,101.62,25,5,6.96,clear sky
518,Kennett,US,36.2362,-90.0556,91.35,57,0,9.22,clear sky
519,Ushtobe,KZ,45.2514,77.9838,83.39,25,11,5.97,few clouds
520,Caernarfon,GB,53.1413,-4.2702,66.07,57,40,5.75,scattered clouds
521,Teguise,ES,29.0605,-13.564,82.62,54,20,14.97,few clouds
522,Meadow Lake,US,34.8014,-106.5436,92.14,31,55,5.21,broken clouds
523,Husavik,IS,66.0449,-17.3389,51.94,81,63,6.51,broken clouds
524,Hualmay,PE,-11.0964,-77.6139,65.98,69,55,6.91,broken clouds
525,Cap-Aux-Meules,CA,47.3821,-61.8597,63.61,98,74,10.98,broken clouds
526,Bismarck,US,46.8083,-100.7837,82.24,51,0,6.91,clear sky
527,Quelimane,MZ,-17.8786,36.8883,67.53,82,3,4.79,clear sky
528,Ambon,ID,-3.6954,128.1814,75.34,17,20,4.61,few clouds
529,Buckeye,US,33.3703,-112.5838,106.68,26,78,8.32,broken clouds
530,Tooele,US,40.5308,-112.2983,91.89,26,0,13.8,clear sky
531,Natal,BR,-5.795,-35.2094,86.22,66,75,19.57,broken clouds
532,Waipawa,NZ,-41.4122,175.5153,39.51,74,44,4.0,scattered clouds
533,Ust-Tsilma,RU,65.441,52.1498,60.08,43,55,4.68,broken clouds
534,Boden,SE,65.8252,21.6886,69.8,42,98,7.4,overcast clouds
535,Zatoka,UA,46.0725,30.4654,77.56,59,17,9.84,few clouds
536,Anaconda,US,46.1285,-112.9423,81.59,18,1,4.65,clear sky
537,Bafia,CM,4.75,11.2333,70.61,96,100,3.02,moderate rain
538,Tyulgan,RU,52.3405,56.166,67.15,65,88,10.02,overcast clouds
539,Lodja,CD,-3.4833,23.4333,85.35,31,99,0.45,overcast clouds
540,Seydi,TM,39.4816,62.9137,99.45,11,0,12.66,clear sky
541,Davila,PH,18.4726,120.5763,83.23,80,3,2.75,clear sky
542,Thessalon,CA,46.2501,-83.5666,75.49,62,93,10.69,overcast clouds
543,Vilyuysk,RU,63.7553,121.6247,58.59,91,39,3.51,scattered clouds
544,Fort Frances,CA,48.5999,-93.4003,78.17,58,7,1.99,clear sky
545,Grand-Santi,GF,4.25,-54.3833,81.03,92,49,3.09,scattered clouds
546,Bhuban,IN,20.8833,85.8333,79.25,92,100,2.44,overcast clouds
547,Tahta,EG,26.7693,31.5021,95.13,18,4,13.73,clear sky
548,Boende,CD,-0.2167,20.8667,72.52,95,100,2.68,light rain
549,Arusha,TZ,-3.3667,36.6833,62.15,58,24,9.24,few clouds
550,Bayan,CN,46.0833,127.4,63.88,85,23,8.16,few clouds
551,Amnat Charoen,TH,15.9167,104.75,76.59,87,96,4.38,overcast clouds
552,Ghorawal,IN,24.7667,82.7833,84.27,70,100,6.71,moderate rain
553,Pareora,NZ,-44.4871,171.2132,38.17,97,100,6.91,overcast clouds
554,Ruy Barbosa,BR,-12.2839,-40.4939,78.87,51,96,7.09,overcast clouds
555,Shimoda,JP,34.6667,138.95,78.1,86,0,15.93,clear sky
556,Phalaborwa,ZA,-23.943,31.1411,67.24,63,62,6.29,broken clouds
557,Christchurch,NZ,-43.5333,172.6333,37.6,93,40,3.44,scattered clouds
558,Hobyo,SO,5.3505,48.5268,76.73,82,71,22.46,broken clouds
559,Shahdol,IN,23.2833,81.35,80.17,80,100,3.44,overcast clouds
560,Toledo,ES,39.8333,-4.0,103.1,11,95,19.15,overcast clouds
561,Gafanha Da Encarnacao,PT,40.6181,-8.733,83.05,75,19,15.46,few clouds
562,Labuhan,ID,-6.8844,112.2051,75.94,81,50,7.02,scattered clouds
563,Tunceli,TR,39.1083,39.5471,76.87,33,5,4.18,clear sky
564,Yaqui,MX,27.3667,-110.1667,95.56,37,91,5.86,overcast clouds
565,Bilibino,RU,68.0546,166.4372,34.43,85,79,5.86,broken clouds
566,Itarema,BR,-2.9248,-39.9167,87.33,55,54,15.86,broken clouds
567,Baiyin,CN,36.5583,104.2081,69.64,37,9,2.42,clear sky
568,Kotelnich,RU,58.3089,48.348,67.69,77,97,4.52,overcast clouds
569,Umea,SE,63.8284,20.2597,69.73,46,0,6.91,clear sky
570,Tura,IN,25.5198,90.2201,75.74,95,100,2.73,overcast clouds
571,Ponca City,US,36.707,-97.0856,95.02,51,50,5.01,scattered clouds
572,Sulangan,PH,11.1373,123.7228,84.72,73,84,6.38,broken clouds
573,Port Hedland,AU,-20.3167,118.5667,66.25,100,75,3.44,mist
574,Bilma,NE,18.6853,12.9164,95.95,26,66,19.08,broken clouds
575,Gympie,AU,-26.1898,152.665,60.46,81,100,9.82,overcast clouds
576,Gap,FR,44.6667,6.0,79.83,29,29,7.92,scattered clouds
577,Kosh-Agach,RU,50.0,88.6667,50.23,76,48,6.96,scattered clouds
578,San Quintin,MX,30.4833,-115.95,72.81,69,43,13.96,scattered clouds
579,Talaya,RU,61.3833,152.75,45.7,79,2,1.25,clear sky
580,Port Keats,AU,-14.25,129.55,65.1,33,48,6.31,scattered clouds
581,The Valley,AI,18.217,-63.0578,86.09,68,7,16.87,clear sky
582,Alakurtti,RU,66.9672,30.3491,67.24,59,92,9.15,overcast clouds
583,Tabou,CI,4.423,-7.3528,79.0,63,31,7.45,scattered clouds
584,Vangaindrano,MG,-23.35,47.6,65.43,85,0,2.84,clear sky
585,Sao Miguel Do Araguaia,BR,-13.275,-50.1628,93.49,20,0,6.8,clear sky
586,Evensk,RU,61.95,159.2333,53.22,48,1,6.06,clear sky
587,Chernyshevskiy,RU,63.0128,112.4714,57.97,77,99,1.34,overcast clouds
588,Camalu,MX,30.85,-116.0667,74.12,64,90,9.69,overcast clouds
589,Vallenar,CL,-28.5708,-70.7581,68.74,52,24,3.44,few clouds
590,Praia,CV,14.9215,-23.5087,81.14,74,40,8.05,scattered clouds
591,Saint Albans,GB,51.75,-0.3333,70.72,63,100,5.75,overcast clouds
592,Mackay,AU,-21.15,149.2,59.13,75,0,9.4,clear sky
593,Buala,SB,-8.145,159.5921,78.98,81,8,4.74,clear sky
594,Sechura,PE,-5.5569,-80.8222,72.5,61,4,7.43,clear sky
595,Kawalu,ID,-7.3817,108.2082,71.53,96,97,1.34,overcast clouds
596,Buta,CD,2.7858,24.73,71.53,92,99,1.52,overcast clouds
597,White Oak,US,39.2131,-84.5994,90.84,61,40,18.41,haze
598,Valreas,FR,44.3837,4.9908,94.87,25,28,17.63,scattered clouds
599,Bela,IN,25.9333,81.9833,86.97,70,100,6.51,overcast clouds
600,Asau,RO,46.4333,26.4,85.28,42,0,5.55,clear sky
601,Bend,US,44.0582,-121.3153,75.15,33,0,4.61,clear sky
602,Lavrentiya,RU,65.5833,-171.0,41.7,84,80,12.82,broken clouds
603,Boguchany,RU,58.3814,97.4531,61.27,91,56,5.08,light rain
604,Sume,BR,-7.6717,-36.88,79.59,56,91,12.41,overcast clouds
605,Monroe,US,43.1501,-77.6831,89.47,57,75,6.91,broken clouds
606,La Union,PE,-5.4,-80.75,76.8,50,4,7.49,clear sky
607,Cayenne,GF,4.9333,-52.3333,88.09,25,40,5.75,scattered clouds
608,Kinablangan,PH,7.6947,126.5503,78.76,84,81,3.51,broken clouds
609,Sangar,RU,63.9242,127.4739,56.14,96,42,4.03,scattered clouds
610,Torres,BR,-29.3353,-49.7269,79.83,74,71,4.27,broken clouds
611,Carpentras,FR,44.0833,5.1667,91.92,29,20,12.73,few clouds
612,Kelvington,CA,52.1667,-103.5343,63.28,72,49,5.95,scattered clouds
613,Gavle,SE,60.6745,17.1417,59.38,83,100,1.01,overcast clouds
614,Flinders,AU,-34.5833,150.8552,52.18,91,70,5.99,broken clouds
615,Axim,GH,4.8699,-2.2405,78.17,68,84,8.39,broken clouds
616,Luba,GQ,3.4568,8.5547,75.09,90,100,8.7,light rain
617,Ayorou,NE,14.7308,0.9174,98.69,28,91,0.31,overcast clouds
618,Flin Flon,CA,54.7682,-101.865,55.96,66,97,6.44,overcast clouds
619,Kurilsk,RU,45.2333,147.8833,54.73,99,100,1.72,overcast clouds
620,Pangai,TO,-19.8,-174.35,74.55,82,31,14.92,light rain
621,Ranau,MY,5.9538,116.6641,69.87,97,94,1.19,overcast clouds
622,Cururupu,BR,-1.8283,-44.8683,88.57,51,59,5.06,broken clouds
623,Aberdeen,GB,57.1437,-2.0981,62.55,76,100,9.22,overcast clouds
624,Cockburn Town,TC,21.4612,-71.1419,78.96,86,100,20.09,overcast clouds
625,Sacosu Turcesc,RO,45.6519,21.4289,99.91,18,0,5.75,clear sky
626,Semnan,IR,35.5729,53.3971,91.69,18,0,2.17,clear sky
627,Freeport,US,40.6576,-73.5832,96.96,45,20,14.97,few clouds
628,Ust-Ishim,RU,57.6935,71.1665,55.81,89,66,4.47,light rain
629,Port Lincoln,AU,-34.7333,135.8667,53.04,65,86,6.04,overcast clouds
630,Floro,NO,61.5996,5.0328,71.67,63,20,17.27,few clouds
631,Lata,PT,40.1629,-8.3327,86.49,45,10,9.33,clear sky
632,Khandyga,RU,62.6667,135.6,63.64,94,99,2.44,light rain
633,Vila Velha,BR,-20.3297,-40.2925,82.35,71,20,10.36,few clouds
634,Suntar,RU,62.1444,117.6319,59.04,91,95,3.87,overcast clouds
635,Buncrana,IE,55.1333,-7.45,64.17,73,82,6.15,broken clouds
636,Batagay,RU,67.6333,134.6333,63.88,83,96,4.63,light rain
637,Agapovka,RU,53.2973,59.1348,69.01,66,53,3.58,broken clouds
638,Bintulu,MY,3.1667,113.0333,77.34,90,100,4.81,overcast clouds
639,Manta,EC,-0.95,-80.7333,73.06,77,96,9.78,overcast clouds
640,Piazza Armerina,IT,37.3859,14.3672,86.56,41,0,7.43,clear sky
641,Palitana,IN,21.5167,71.8333,80.8,80,100,11.36,overcast clouds
642,Bandar-E Lengeh,IR,26.5579,54.8807,95.49,57,65,4.7,broken clouds
643,Yagodnoye,RU,62.55,149.6667,47.91,82,66,1.19,broken clouds
644,Puerto Madryn,AR,-42.7692,-65.0385,44.87,39,100,5.68,overcast clouds
645,Granger,US,41.7481,-86.1257,84.11,49,0,5.75,clear sky
646,Lardos,GR,36.0942,28.0157,89.42,48,0,7.74,clear sky
647,Kodinsk,RU,58.6881,99.1844,60.19,84,89,4.43,overcast clouds
648,Yumen,CN,40.2833,97.2,78.04,14,0,11.59,clear sky
649,Ahipara,NZ,-35.1667,173.1667,48.54,86,77,7.02,broken clouds
650,Ostrovnoy,RU,68.0531,39.5131,52.45,98,100,15.61,overcast clouds
651,Qaqortoq,GL,60.7167,-46.0333,51.01,72,35,4.52,scattered clouds
652,Rocha,UY,-34.4833,-54.3333,63.57,71,71,2.17,broken clouds
653,Bartica,GY,6.4,-58.6167,90.61,47,41,5.46,scattered clouds
654,Severo-Yeniseyskiy,RU,60.3725,93.0408,55.69,98,94,4.09,moderate rain
655,Whitehorse,CA,60.7161,-135.0538,54.1,62,80,13.0,broken clouds
656,Shubarshi,KZ,48.5872,57.1869,77.88,42,89,8.41,overcast clouds
657,Elat,IL,29.5581,34.9482,102.04,35,0,8.05,clear sky
658,Peleduy,RU,59.6289,112.7406,64.4,78,98,3.2,overcast clouds
659,Conceicao Do Araguaia,BR,-8.2578,-49.2647,96.42,22,54,10.67,broken clouds
660,The Pas,CA,53.8251,-101.2541,62.53,59,63,5.57,broken clouds
661,Carndonagh,IE,55.25,-7.2667,64.02,70,90,4.92,overcast clouds
662,Chumikan,RU,54.7183,135.315,50.25,98,77,2.33,broken clouds
663,Imeni Poliny Osipenko,RU,52.4201,136.4853,55.81,92,99,7.16,overcast clouds
664,Wum,CM,6.3833,10.0667,67.6,95,100,1.32,light rain
665,Reconquista,AR,-29.15,-59.65,73.42,94,100,9.22,thunderstorm with light rain
666,Vila Franca Do Campo,PT,37.7167,-25.4333,72.01,66,96,2.64,overcast clouds
667,Sakakah,SA,29.9697,40.2064,102.56,12,5,6.67,clear sky
668,Sampit,ID,-2.5333,112.95,74.17,98,99,2.42,overcast clouds
669,Surman,LY,32.7567,12.5716,84.88,48,0,15.68,clear sky
670,Tahoua,NE,14.8888,5.2692,95.18,35,100,7.25,overcast clouds
671,Puerto Suarez,BO,-18.95,-57.8,93.76,29,0,9.22,clear sky
672,Ballina,AU,-28.8667,153.5667,60.01,97,99,23.33,overcast clouds
673,Mari-Turek,RU,56.7895,49.6235,65.43,77,25,5.88,scattered clouds
674,Sabha,LY,27.0377,14.4283,92.44,15,0,10.36,clear sky
675,Kilindoni,TZ,-7.9139,39.6668,75.36,75,2,14.18,clear sky
676,Florianopolis,BR,-27.6146,-48.5012,72.63,75,75,11.5,broken clouds
677,White Settlement,US,32.7596,-97.4584,101.26,27,54,8.99,broken clouds
678,Auki,SB,-8.7676,160.7034,75.81,85,93,4.16,overcast clouds
679,Taoudenni,ML,22.6783,-3.9836,109.99,12,9,2.57,clear sky
680,College,US,64.8569,-147.8028,52.59,89,100,6.91,overcast clouds
681,Guider,CM,9.9342,13.9486,82.51,70,98,0.58,overcast clouds
682,Miles City,US,46.4083,-105.8406,93.65,12,6,11.99,clear sky
683,Laurel,US,39.0993,-76.8483,95.79,47,0,5.75,clear sky
684,Ishimbay,RU,53.4545,56.0415,65.03,75,46,6.53,light rain
685,Talcahuano,CL,-36.7167,-73.1167,53.28,94,100,3.44,overcast clouds
686,Ribeira Brava,PT,32.65,-17.0667,75.83,61,0,3.27,clear sky
687,Jacmel,HT,18.2342,-72.5347,89.44,63,36,8.43,scattered clouds
688,Buena Vista,US,43.4203,-83.8986,89.08,40,0,16.11,clear sky
689,Purificacion,CO,3.8587,-74.9313,89.53,44,76,2.77,broken clouds
690,Sambava,MG,-14.2667,50.1667,69.85,84,12,12.57,light rain
691,Kununurra,AU,-15.7667,128.7333,55.38,88,56,2.3,broken clouds
692,Gemena,CD,3.25,19.7667,69.08,100,100,2.13,light rain
693,Youghal,IE,51.95,-7.8506,64.09,76,68,13.73,broken clouds
694,Kapuskasing,CA,49.4169,-82.4331,78.46,41,7,11.23,clear sky
695,Neustrelitz,DE,53.3667,13.0833,75.76,44,57,8.93,broken clouds
696,Algiers,DZ,36.7525,3.042,85.82,62,0,8.05,clear sky
697,Hovd,MN,48.0056,91.6419,69.76,36,100,8.57,light rain
698,Valkeala,FI,60.9401,26.7979,79.3,53,0,10.36,clear sky
699,Charters Towers,AU,-20.1,146.2667,54.09,59,0,7.02,clear sky
700,Paine,CL,-33.8167,-70.75,67.5,36,0,1.34,clear sky
701,Fuerte Olimpo,PY,-21.0415,-57.8738,95.31,21,4,12.12,clear sky
702,Umm Bab,QA,25.2142,50.8072,97.81,53,59,7.07,broken clouds
703,Tommot,RU,58.9564,126.2925,65.16,88,76,1.81,broken clouds
704,Westport,US,41.1415,-73.3579,94.62,50,0,1.01,clear sky
705,Sola,VU,-13.8833,167.55,80.17,79,99,14.63,overcast clouds
706,Uige,AO,-7.6087,15.0613,82.35,34,76,6.04,broken clouds
